{
  "type": "FeatureCollection",
  "features": [
    {
      "type": "Feature",
      "geometry": {
        "type": "Point",
        "coordinates": [-77.034084142948, 38.909671288923]
      },
      "properties": {
        "name": "Batch 0",
        "phone": "2022347336",
        "address": "1471 P St NW",
        "city": "Washington DC"
      }
    },
    {
      "type": "Feature",
      "geometry": {
        "type": "Point",
        "coordinates": [-77.049766, 38.900772]
      },
      "properties": {
        "name": "Batch 1",
        "phone": "2025078357",
        "address": "2221 I St NW",
        "city": "Washington DC"
      }
    },
    {
      "type": "Feature",
      "geometry": {
        "type": "Point",
        "coordinates": [-77.043929, 38.910525]
      },
      "properties": {
        "name": "Batch 2",
        "phone": "2023879338",
        "address": "1512 Connecticut Ave NW",
        "city": "Washington DC"
      }
    },
    {
      "type": "Feature",
      "geometry": {
        "type": "Point",
        "coordinates": [-77.0672, 38.90516896]
      },
      "properties": {
        "name": "Batch 3",
        "phone": "2023379338",
        "address": "3333 M St NW",
        "city": "Washington DC",

        "postalCode": "20007"
      }
    },
    {
      "type": "Feature",
      "geometry": {
        "type": "Point",
        "coordinates": [-77.002583742142, 38.887041080933]
      },
      "properties": {
        "name": "Batch 4",
        "phone": "2025479338",
        "address": "221 Pennsylvania Ave SE",
        "city": "Washington DC",

        "postalCode": "20003"
      }
    },
    {
      "type": "Feature",
      "geometry": {
        "type": "Point",
        "coordinates": [-76.933492720127, 38.99225245786]
      },
      "properties": {
        "address": "8204 Baltimore Ave",
        "city": "College Park",

        "postalCode": "20740"
      }
    },
    {
      "type": "Feature",
      "geometry": {
        "type": "Point",
        "coordinates": [-77.097083330154, 38.980979]
      },
      "properties": {
        "name": "Batch 5",
        "phone": "3016547336",
        "address": "4831 Bethesda Ave",
        "cc": "US",
        "city": "Bethesda",

        "postalCode": "20814"
      }
    },
    {
      "type": "Feature",
      "geometry": {
        "type": "Point",
        "coordinates": [-77.359425054188, 38.958058116661]
      },
      "properties": {
        "name": "Batch 6",
        "phone": "5712030082",
        "address": "11935 Democracy Dr",
        "city": "Reston"
      }
    },
    {
      "type": "Feature",
      "geometry": {
        "type": "Point",
        "coordinates": [-77.10853099823, 38.880100922392]
      },
      "properties": {
        "name": "Batch 7",
        "phone": "7035222016",
        "address": "4075 Wilson Blvd",
        "city": "Arlington"
      }
    },
    {
      "type": "Feature",
      "geometry": {
        "type": "Point",
        "coordinates": [-75.28784, 40.008008]
      },
      "properties": {
        "name": "Batch 8",
        "phone": "6106429400",
        "address": "68 Coulter Ave",
        "city": "Ardmore"
      }
    },
    {
      "type": "Feature",
      "geometry": {
        "type": "Point",
        "coordinates": [-75.20121216774, 39.954030175164]
      },
      "properties": {
        "name": "Batch 9",
        "phone": "2153861365",
        "address": "3925 Walnut St",
        "city": "Philadelphia"
      }
    },
    {
      "type": "Feature",
      "geometry": {
        "type": "Point",
        "coordinates": [-77.043959498405, 38.903883387232]
      },
      "properties": {
        "name": "Batch 10",
        "phone": "2023313355",
        "address": "1901 L St. NW",
        "city": "Washington DC"
      }
    }
  ]
}
